City_ID,City,Lat,Lng,Max Temp,Humidity,Cloudiness,Wind Speed,Country,Date
0,blackmans bay,-43.0167,147.3167,53.73,96,100,6.38,AU,1720569654
1,bethel,41.3712,-73.414,83.19,80,97,1.99,US,1720569655
2,susuman,62.7833,148.1667,63.48,45,9,5.12,RU,1720569656
3,barmer,25.75,71.3833,84.47,66,20,5.3,IN,1720569657
4,port-aux-francais,-49.35,70.2167,40.3,86,71,27.56,TF,1720569658
5,palmas,-10.2128,-48.3603,80.47,54,0,4.61,BR,1720569504
6,talnakh,69.4865,88.3972,63.61,65,6,3.42,RU,1720569661
7,papatowai,-46.5619,169.4708,49.95,70,63,6.11,NZ,1720569662
8,dakhla,23.6848,-15.958,65.97,87,0,24.92,EH,1720569663
9,hermanus,-34.4187,19.2345,56.8,78,96,24.85,ZA,1720569664
10,puerto ayora,-0.7393,-90.3518,69.55,100,80,6.17,EC,1720569665
11,torghay,49.6339,63.4981,74.16,43,90,8.19,KZ,1720569667
12,tiksi,71.6872,128.8694,58.3,51,40,4.03,RU,1720569668
13,bilibino,68.0546,166.4372,62.89,43,10,11.41,RU,1720569669
14,kodiak,57.79,-152.4072,51.31,100,100,10.36,US,1720569670
15,dayton,39.7589,-84.1916,84.45,61,75,11.5,US,1720569671
16,olonkinbyen,70.9221,-8.7187,39.2,89,99,18.3,SJ,1720569673
17,remire-montjoly,4.9167,-52.2667,78.84,94,0,4.61,GF,1720569674
18,margaret river,-33.95,115.0667,58.17,60,93,24.83,AU,1720569450
19,dinguiraye,11.3,-10.7167,72.25,92,100,3.67,GN,1720569676
20,tazovsky,67.4667,78.7,53.37,69,87,11.18,RU,1720569677
21,waingapu,-9.6567,120.2641,78.91,75,90,15.7,ID,1720569678
22,adamstown,-25.066,-130.1015,68.16,58,99,10.4,PN,1720569680
23,port alfred,-33.5906,26.891,66.63,45,82,28.32,ZA,1720569681
24,aasiaat,68.7098,-52.8699,37.17,92,100,1.9,GL,1720569682
25,khandyga,62.6667,135.6,57.87,95,100,1.41,RU,1720569683
26,puerto baquerizo moreno,-0.9,-89.6,70.81,84,79,8.05,EC,1720569686
27,saint-philippe,-21.3585,55.7679,62.19,74,27,5.97,RE,1720569687
28,antofagasta,-23.65,-70.4,56.48,82,47,4.76,CL,1720569688
29,balnearia,-31.0088,-62.6673,38.55,46,3,8.21,AR,1720569689
30,vallenar,-28.5708,-70.7581,53.58,71,1,1.63,CL,1720569690
31,yellowknife,62.456,-114.3525,76.41,64,100,2.3,CA,1720569691
32,treviglio,45.5238,9.5895,77.95,74,27,3.44,IT,1720569693
33,puerto natales,-51.7236,-72.4875,41.14,83,98,15.19,CL,1720569694
34,albany,42.6001,-73.9662,84.58,67,95,3.0,US,1720569618
35,san patricio,28.017,-97.5169,91.85,59,96,15.26,US,1720569696
36,nemuro,43.3236,145.575,58.1,99,100,3.96,JP,1720569697
37,rincon,32.296,-81.2354,85.84,78,100,13.8,US,1720569699
38,waitangi,-43.9535,-176.5597,47.82,86,94,4.0,NZ,1720569700
39,grytviken,-54.2811,-36.5092,29.66,88,91,11.14,GS,1720569701
40,alta,69.9689,23.2717,52.86,71,0,5.75,NO,1720569702
41,west island,-12.1568,96.8225,82.38,94,20,5.75,CC,1720569703
42,cidreira,-30.1811,-50.2056,47.3,90,100,4.68,BR,1720569705
43,sao joao da barra,-21.6403,-41.0511,71.69,91,71,6.26,BR,1720569706
44,labytnangi,66.6572,66.4183,63.23,65,6,1.99,RU,1720569707
45,new norfolk,-42.7826,147.0587,54.91,99,100,2.15,AU,1720569708
46,uturoa,-16.7333,-151.4333,78.75,72,11,5.44,PF,1720569709
47,keflavik,64.0049,-22.5624,51.71,93,0,10.36,IS,1720569711
48,rio grande,-32.035,-52.0986,48.31,86,100,11.97,BR,1720569712
49,badger,64.8,-147.5333,59.0,86,100,3.22,US,1720569713
50,invercargill,-46.4,168.35,45.01,85,85,4.0,NZ,1720569714
51,dehloran,32.6941,47.2679,97.11,14,0,9.1,IR,1720569715
52,longyearbyen,78.2186,15.6401,40.84,81,75,21.85,SJ,1720569717
53,vorgashor,67.5833,63.95,60.75,56,3,4.83,RU,1720569718
54,al mindak,20.1588,41.2834,76.6,18,32,8.32,SA,1720569720
55,edinburgh of the seven seas,-37.0676,-12.3116,54.03,79,90,23.02,SH,1720569721
56,hammerfest,70.6634,23.6821,50.45,81,75,11.5,NO,1720569722
57,genc,38.7507,40.5603,68.88,67,42,7.81,TR,1720569725
58,eraan,9.0629,117.7016,81.12,80,100,3.76,PH,1720569726
59,ribeira grande,38.5167,-28.7,72.77,87,51,3.0,PT,1720569727
60,pailon,-17.65,-62.75,56.88,49,58,7.29,BO,1720569728
61,iqaluit,63.7506,-68.5145,47.93,71,75,3.44,CA,1720569729
62,cabo san lucas,22.8909,-109.9124,86.18,63,10,15.17,MX,1720569730
63,limulunga,-15.0969,23.1376,49.26,21,0,5.79,ZM,1720569732
64,muli,2.9167,73.5667,83.17,74,32,6.06,MV,1720569733
65,kill devil hills,36.0307,-75.676,82.98,79,40,16.11,US,1720569734
66,hawaiian paradise park,19.5933,-154.9731,81.88,69,40,3.0,US,1720569735
67,puerto santa,-8.9906,-78.6456,64.2,83,40,10.89,PE,1720569736
68,san andres,12.5847,-81.7006,86.02,79,40,14.97,CO,1720569738
69,sechura,-5.5569,-80.8222,68.23,70,33,18.63,PE,1720569739
70,lihue,21.9789,-159.3672,81.73,70,25,15.57,US,1720569740
71,isla mujeres,21.2311,-86.731,84.16,87,100,9.28,MX,1720569741
72,port mathurin,-19.6833,63.4167,72.0,62,63,13.31,MU,1720569742
73,udomlya,57.8794,34.9925,52.52,83,17,3.04,RU,1720569744
74,luena,-11.7833,19.9167,49.21,26,7,4.88,AO,1720569745
75,tobelo,1.7284,128.0095,80.24,80,98,2.15,ID,1720569746
76,abadiania,-16.2042,-48.7069,63.52,39,51,0.96,BR,1720569747
77,katsuura,35.1333,140.3,81.25,76,86,15.95,JP,1720569748
78,wailua homesteads,22.0669,-159.378,81.12,70,21,8.01,US,1720569750
79,pekan nenas,1.51,103.5141,80.58,93,95,3.62,MY,1720569751
80,avarua,-21.2078,-159.775,73.45,60,75,5.75,CK,1720569752
81,al hufuf,25.3646,49.5653,91.74,15,0,4.61,SA,1720569753
82,saipan,15.1355,145.701,83.89,78,46,18.63,MP,1720569754
83,ust-kamenogorsk,49.9789,82.6103,64.33,94,75,4.47,KZ,1720569756
84,uberaba,-19.7483,-47.9319,72.18,64,0,9.22,BR,1720569757
85,chanika,-5.4167,38.0167,64.06,93,91,3.24,TZ,1720569758
86,ushuaia,-54.8,-68.3,38.86,87,75,39.12,AR,1720569759
87,quang ngai,15.1167,108.8,80.71,75,100,2.21,VN,1720569760
88,san juan nepomuceno,9.9516,-75.082,77.67,90,97,6.89,CO,1720569762
89,hadibu,12.65,54.0333,79.81,83,90,21.88,YE,1720569763
90,east ballina,-28.8667,153.5833,70.81,80,33,5.59,AU,1720569764
91,thompson,55.7435,-97.8558,75.36,43,40,4.61,CA,1720569765
92,bredasdorp,-34.5322,20.0403,52.14,79,87,21.07,ZA,1720569766
93,madera,37.1666,-119.8343,108.45,13,0,9.57,US,1720569768
94,olenino,56.2092,33.4889,54.39,79,41,5.53,RU,1720569769
95,brisas de zicatela,15.8369,-97.0419,82.87,79,98,6.31,MX,1720569770
96,carutapera,-1.195,-46.02,76.32,86,21,7.02,BR,1720569771
97,cambria,35.5641,-121.0808,106.23,57,21,13.24,US,1720569772
98,college,64.8569,-147.8028,60.08,84,100,0.0,US,1720569535
99,n'zeto,-7.2312,12.8666,68.7,93,6,5.86,AO,1720569775
100,petropavlovsk-kamchatsky,53.0452,158.6483,52.39,100,100,6.71,RU,1720569776
101,qamdo,31.1667,97.2333,47.93,84,100,1.7,CN,1720569777
102,caxito,-8.5785,13.6643,64.83,96,2,1.23,AO,1720569778
103,freetown,8.484,-13.2299,82.11,78,75,6.91,SL,1720569779
104,choyr,46.3611,108.3611,71.51,49,83,3.38,MN,1720569781
105,gospic,44.5461,15.3747,69.49,86,36,3.89,HR,1720569782
106,tura,25.5198,90.2201,75.72,99,100,6.82,IN,1720569783
107,atafu village,-8.5421,-172.5159,82.63,77,59,16.35,TK,1720569784
108,whitehorse,60.7161,-135.0538,74.8,34,75,13.8,CA,1720569630
109,ghat,24.9647,10.1728,85.23,14,7,4.27,LY,1720569787
110,port elizabeth,-33.918,25.5701,59.29,70,20,13.8,ZA,1720569615
111,melilla,35.2937,-2.9383,73.78,83,0,1.14,ES,1720569792
112,bardai,11.65,7.2333,76.26,68,88,9.08,NG,1720569793
113,vilyuchinsk,52.9306,158.4028,53.87,95,100,3.38,RU,1720569794
114,kerrville,30.0474,-99.1403,82.53,73,0,4.61,US,1720569795
115,usinsk,65.9939,57.5281,63.75,64,0,8.84,RU,1720569796
116,palikir - national government center,6.9248,158.1611,86.85,74,100,11.5,FM,1720569798
117,stanley,54.868,-1.6985,56.71,96,100,1.81,GB,1720569799
118,lamin,13.3522,-16.4339,77.11,78,69,10.42,GM,1720569800
119,enewetak,11.3474,162.3373,83.97,73,10,15.84,MH,1720569801
120,turpan,42.9333,89.1667,90.79,31,41,3.4,CN,1720569802
121,lubang,13.8584,120.124,84.22,74,100,7.18,PH,1720569805
122,praia da vitoria,38.7333,-27.0667,77.25,83,40,11.77,PT,1720569806
123,stephenville,32.2207,-98.2023,92.14,41,0,5.75,US,1720569807
124,namp'o,38.7375,125.4078,77.18,74,70,5.19,KP,1720569808
125,rabo de peixe,37.8,-25.5833,71.11,94,75,17.27,PT,1720569810
126,dawei,14.0833,98.2,79.03,86,95,1.77,MM,1720569811
127,pyt-yakh,60.7499,72.8582,63.03,72,65,4.14,RU,1720569812
128,tralee,52.2704,-9.7026,54.46,97,92,4.45,IE,1720569813
129,rawson,-43.3002,-65.1023,38.23,74,6,12.57,AR,1720569816
130,fort bragg,35.139,-79.006,89.44,68,40,9.22,US,1720569817
131,happy valley-goose bay,53.3168,-60.3315,64.71,100,100,3.44,CA,1720569818
132,kem',64.9555,34.5793,53.24,83,32,7.72,RU,1720569819
133,wanning,18.8003,110.3967,83.66,81,38,5.97,CN,1720569820
134,governador valadares,-18.8511,-41.9494,73.38,55,4,3.13,BR,1720569822
135,st. john's,47.5649,-52.7093,66.27,91,61,1.99,CA,1720569823
136,guerrero negro,27.9769,-114.0611,72.61,66,2,13.78,MX,1720569824
137,afaahiti,-17.75,-149.2833,80.47,74,50,4.65,PF,1720569825
138,colonia,50.9333,6.95,68.29,89,0,2.3,DE,1720569609
139,isafjordur,66.0755,-23.124,45.86,79,97,8.48,IS,1720569827
140,el granada,37.5027,-122.4694,78.12,72,20,17.27,US,1720569829
141,mazagao,-0.115,-51.2894,84.25,82,35,3.13,BR,1720569830
142,yemetsk,63.4721,41.7941,54.93,93,81,5.44,RU,1720569831
143,kijang,35.2442,129.2139,74.93,97,100,15.93,KR,1720569795
144,novyy urgal,51.0736,132.5642,62.98,63,100,3.02,RU,1720569833
145,san lawrenz,36.0553,14.204,78.21,74,0,6.64,MT,1720569834
146,birao,10.2849,22.7882,73.8,83,85,8.59,CF,1720569836
147,aldinga beach,-35.2793,138.4604,56.26,84,3,11.97,AU,1720569837
148,iskateley,67.6803,53.1512,60.84,96,92,8.3,RU,1720569838
149,ghadamis,30.1337,9.5007,93.79,15,0,8.63,LY,1720569839
150,east london,-33.0153,27.9116,70.2,28,85,19.8,ZA,1720569840
151,el calafate,-50.3408,-72.2768,34.41,81,77,11.3,AR,1720569841
152,fortuna,40.5982,-124.1573,65.32,88,0,13.8,US,1720569843
153,nova vicosa,-17.8919,-39.3719,75.07,81,1,11.32,BR,1720569844
154,satsuma,30.8532,-88.0561,87.04,67,28,8.21,US,1720569698
155,mount isa,-20.7333,139.5,64.17,45,24,8.05,AU,1720569633
156,tolanaro,-25.0319,46.9987,60.87,94,0,0.0,MG,1720569847
157,midar,34.9403,-3.5331,69.17,55,21,1.61,MA,1720569848
158,sur,22.5667,59.5289,84.13,70,93,9.01,OM,1720569850
159,egilsstadir,65.2653,-14.3948,55.31,71,0,10.36,IS,1720569851
160,chandler,33.3062,-111.8412,115.07,14,0,6.91,US,1720569852
161,tete,-16.1564,33.5867,69.89,56,0,4.61,MZ,1720569642
162,fort mcmurray,56.7268,-111.381,92.71,31,0,9.22,CA,1720569854
163,kokpekty,48.75,82.4,62.38,91,88,10.8,KZ,1720569855
164,igarka,67.4667,86.5833,61.75,64,12,4.94,RU,1720569857
165,burang,30.25,81.1667,44.92,88,2,2.98,CN,1720569858
166,yulinshi,38.2906,109.7494,77.2,58,64,8.88,CN,1720569859
167,itoman,26.1247,127.6694,89.4,81,40,17.27,JP,1720569860
168,barakani,-12.1356,44.4317,76.12,70,5,10.18,KM,1720569861
169,minas de marcona,-15.2119,-75.1103,50.7,88,7,13.02,PE,1720569862
170,kununurra,-15.7667,128.7333,78.78,53,23,12.66,AU,1720569864
171,luwuk,-0.9516,122.7875,73.22,91,100,6.93,ID,1720569865
172,lazaro cardenas,17.9583,-102.2,82.31,74,99,6.11,MX,1720569866
173,kruisfontein,-34.0033,24.7314,54.88,71,53,7.23,ZA,1720569867
174,timmins,48.4669,-81.3331,69.62,83,75,0.0,CA,1720569868
175,mata-utu,-13.2816,-176.1745,80.13,84,100,24.27,WF,1720569869
176,miyako,39.6367,141.9525,77.07,69,97,2.21,JP,1720569871
177,dunedin,-45.8742,170.5036,47.8,90,80,3.94,NZ,1720569641
178,dame-marie,18.5667,-74.4167,82.78,79,93,5.01,HT,1720569873
179,lebu,-37.6167,-73.65,43.34,74,0,11.68,CL,1720569874
180,sitka,57.0531,-135.33,55.29,94,100,8.05,US,1720569876
181,cururupu,-1.8283,-44.8683,72.84,91,9,1.81,BR,1720569877
182,richards bay,-28.783,32.0377,66.76,15,0,7.87,ZA,1720569878
183,lorengau,-2.0226,147.2712,84.0,74,72,8.32,PG,1720569879
184,nevel'sk,46.6733,141.8633,57.51,96,100,7.49,RU,1720569880
185,qaqortoq,60.7167,-46.0333,40.28,99,100,7.18,GL,1720569881
186,chonchi,-42.6128,-73.8092,39.11,94,2,3.44,CL,1720569883
187,kone,-21.0595,164.8658,79.11,57,67,9.15,NC,1720569884
188,klyuchi,52.2667,79.1667,60.93,81,15,5.61,RU,1720569885
189,scottburgh,-30.2867,30.7532,59.13,21,7,7.43,ZA,1720569886
190,sinop,41.7711,34.8709,66.81,74,5,4.05,TR,1720569887
191,likiep,9.8251,169.3107,82.44,76,37,19.39,MH,1720569889
192,pisco,-13.7,-76.2167,62.65,82,0,10.36,PE,1720569891
193,emerald,-23.5333,148.1667,66.34,83,2,12.88,AU,1720569892
194,iquitos,-3.7481,-73.2472,75.24,88,75,3.44,PE,1720569767
195,olyokminsk,60.3736,120.4264,77.38,37,71,8.12,RU,1720569894
196,kainantu,-6.2887,145.8655,70.14,69,92,3.53,PG,1720569895
197,santa elena de uairen,4.6167,-61.1333,68.13,89,91,2.08,VE,1720569897
198,alofi,-19.0595,-169.9187,75.09,57,75,20.71,NU,1720569898
199,vernon,50.2581,-119.2691,103.93,17,0,1.14,CA,1720569644
200,cockburn town,21.4612,-71.1419,82.9,83,0,16.51,TC,1720569900
201,coron,11.9986,120.2043,78.6,88,100,1.28,PH,1720569901
202,fale old settlement,-9.3852,-171.2468,83.21,76,77,16.82,TK,1720569903
203,kimbe,-5.5502,150.1429,86.41,65,77,8.59,PG,1720569904
204,talara,-4.5772,-81.2719,66.96,88,0,18.37,PE,1720569905
205,mahajanga,-15.7167,46.3167,66.22,94,0,4.61,MG,1720569906
206,tabou,4.423,-7.3528,75.72,86,100,11.34,CI,1720569907
207,hamilton,39.1834,-84.5333,84.83,75,100,5.99,US,1720569726
208,touros,-5.1989,-35.4608,76.59,85,2,9.98,BR,1720569910
209,la ronge,55.1001,-105.2842,80.85,44,0,6.91,CA,1720569911
210,loudeac,48.1783,-2.7543,60.39,96,57,9.01,FR,1720569912
211,gao,16.6362,1.637,84.13,58,79,27.6,ML,1720569913
212,ipueiras,-7.0333,-40.45,72.57,52,1,5.86,BR,1720569914
213,atbasar,51.8,68.3333,60.39,78,15,4.41,KZ,1720569916
214,al bayda',32.7627,21.7551,69.03,94,25,6.67,LY,1720569917
215,attur,11.6,78.6167,76.21,89,100,5.35,IN,1720569918
216,monrovia,6.3005,-10.7969,76.77,89,54,7.92,LR,1720569919
217,shkoder,42.0683,19.5126,80.94,71,6,4.32,AL,1720569920
218,utrik,11.2278,169.8474,82.15,73,15,17.54,MH,1720569921
219,pontes e lacerda,-15.2261,-59.3353,66.13,55,3,5.26,BR,1720569923
220,sorong,-0.8833,131.25,77.94,90,100,7.63,ID,1720569924
221,saint-louis,16.3333,-15.0,89.24,47,83,13.29,SN,1720569925
222,tazacorte,28.629,-17.9293,70.77,94,20,11.5,ES,1720569926
223,mahibadhoo,3.7833,72.9667,83.03,76,70,6.4,MV,1720569927
224,filadelfia,39.9523,-75.1638,89.02,69,100,3.0,US,1720569668
225,nagqu,31.5,92.0,45.86,86,100,1.23,CN,1720569930
226,saldanha,-33.0117,17.9442,55.45,84,94,14.83,ZA,1720569931
227,midvagur,62.0511,-7.1939,45.43,93,33,0.0,FO,1720569932
228,ntoum,0.3833,9.7833,73.49,84,83,4.68,GA,1720569933
229,toliara,-23.35,43.6667,64.08,84,0,10.31,MG,1720569934
230,al jawf,29.5,38.75,85.28,18,0,4.54,SA,1720569936
231,ust-nera,64.5667,143.2,70.63,35,76,4.97,RU,1720569937
232,kailua-kona,19.6406,-155.9956,84.16,83,75,13.8,US,1720569938
233,udachny,66.4167,112.4,73.71,52,100,10.89,RU,1720569939
234,rongelap,11.1635,166.8941,83.05,76,4,17.67,MH,1720569940
235,vadso,70.0744,29.7487,50.88,87,100,8.05,NO,1720569942
236,lerwick,60.1545,-1.1494,53.6,87,99,12.86,GB,1720569943
237,karratha,-20.7377,116.8463,71.71,34,50,4.92,AU,1720569944
238,ilulissat,69.2167,-51.1,36.28,99,100,4.23,GL,1720569945
239,belem de sao francisco,-8.7539,-38.9658,74.8,72,28,20.54,BR,1720569946
240,kobryn,52.2138,24.3564,61.47,80,0,8.25,BY,1720569948
241,kavieng,-2.5744,150.7967,83.46,78,100,11.63,PG,1720569949
242,palmeiras de goias,-16.805,-49.9258,72.88,39,33,2.33,BR,1720569950
243,ta`u,-14.2336,-169.5144,78.78,79,99,29.64,AS,1720569951
244,topeka,39.0483,-95.678,84.45,52,0,8.05,US,1720569920
245,elliot,-31.3333,27.85,46.96,26,38,27.16,ZA,1720569956
246,urumqi,43.801,87.6005,72.55,50,0,4.47,CN,1720569958
247,sterling,39.0062,-77.4286,91.69,67,75,4.61,US,1720569747
248,junagarh,19.8667,82.9333,78.84,83,93,3.27,IN,1720569960
249,yemva,62.59,50.8594,64.67,81,90,4.52,RU,1720569961
250,phibun mangsahan,15.2447,105.2291,76.98,85,100,8.34,TH,1720569963
251,luderitz,-26.6481,15.1594,56.41,46,31,6.73,NA,1720569964
252,bakanas,44.8081,76.2772,75.24,49,0,3.31,KZ,1720569965
253,mogok,22.9167,96.5,64.47,98,100,3.27,MM,1720569966
254,salekhard,66.53,66.6019,63.43,63,11,2.48,RU,1720569837
255,novofedorivka,46.1713,32.3178,77.79,54,91,10.85,UA,1720569968
256,mount gambier,-37.8333,140.7667,46.08,84,14,5.84,AU,1720569970
257,jamestown,42.097,-79.2353,74.84,100,75,4.61,US,1720569771
258,hermiston,45.8404,-119.2895,108.95,10,0,9.22,US,1720569820
259,chipinge,-20.1883,32.6236,48.9,33,0,3.62,ZW,1720569974
260,sanctuary point,-35.1114,150.629,62.33,65,43,6.87,AU,1720569975
261,hanumangarh,29.5833,74.3167,90.34,61,44,4.16,IN,1720569977
262,sampit,-2.5333,112.95,75.85,91,99,1.7,ID,1720569978
263,augusto correa,-1.0217,-46.635,75.4,87,18,3.04,BR,1720569979
264,el alto,-4.2714,-81.2147,64.06,84,23,17.65,PE,1720569980
265,wynyard,-41.0,145.7167,51.91,91,100,2.75,AU,1720569981
266,christchurch,-43.5333,172.6333,45.95,92,100,9.22,NZ,1720569952
267,rudnyy,52.9594,63.1206,59.23,77,90,6.85,KZ,1720569790
268,baymak,52.5933,58.3225,60.21,92,59,11.56,RU,1720569985
269,mejit,10.2753,170.8646,81.93,71,47,17.13,MH,1720569986
270,anadyr,64.75,177.4833,61.3,54,40,31.0,RU,1720569987
271,motueka,-41.1333,173.0167,52.11,63,13,2.57,NZ,1720569988
272,ellsworth,44.5434,-68.4195,73.56,94,75,8.05,US,1720569796
273,pokhara,28.2333,83.9833,72.0,92,95,1.28,NP,1720569991
274,litayan,7.3358,124.0347,80.24,81,100,3.2,PH,1720569992
275,cestos city,5.46,-9.5828,77.0,83,74,12.82,LR,1720569993
276,ancud,-41.8697,-73.8203,39.11,81,2,5.7,CL,1720569994
277,katiola,8.1333,-5.1,74.03,96,97,6.17,CI,1720569995
278,doaba,33.4244,70.7364,83.46,58,3,3.18,PK,1720569996
279,punta arenas,-53.15,-70.9167,41.11,81,20,34.52,CL,1720569781
280,prainha,-1.8,-53.48,75.29,86,73,1.43,BR,1720569999
281,conception bay south,47.4999,-52.9981,66.04,91,54,11.5,CA,1720570000
282,hilo,19.7297,-155.09,83.93,71,0,10.36,US,1720570001
283,kidal,18.4411,1.4078,90.77,31,45,4.45,ML,1720570002
284,solnechnyy,50.7214,136.6319,49.93,96,100,5.97,RU,1720570004
285,ust-tsilma,65.441,52.1498,62.06,96,49,3.24,RU,1720570005
286,kerikeri,-35.2268,173.9474,62.91,83,21,7.0,NZ,1720570006
287,lompoc,34.6391,-120.4579,89.74,80,0,11.99,US,1720570007
288,kodinsk,58.6881,99.1844,71.8,66,83,1.7,RU,1720570008
289,necochea,-38.5473,-58.7368,38.07,80,9,3.2,AR,1720570010
290,akureyri,65.6835,-18.0878,59.31,68,98,7.49,IS,1720570011
291,piui,-20.4653,-45.9581,72.36,43,86,4.0,BR,1720570012
292,crotone,39.0851,17.1178,82.18,52,0,3.89,IT,1720570013
293,danane,7.2596,-8.155,70.39,99,89,2.15,CI,1720570014
294,labasa,-16.4167,179.3833,77.38,78,100,12.5,FJ,1720570015
295,kingston,17.997,-76.7936,88.75,66,20,16.11,JM,1720569960
296,corner brook,48.9667,-57.9484,68.43,85,100,6.62,CA,1720570018
297,antalaha,-14.9003,50.2788,67.39,75,45,6.87,MG,1720570019
298,tsengel,49.4783,100.8894,65.62,59,8,2.64,MN,1720570020
299,columbia falls,48.3725,-114.1815,94.01,25,0,5.75,US,1720570021
300,chajari,-30.7505,-57.9796,42.82,66,100,8.1,AR,1720570022
301,vuyyuru,16.3667,80.85,81.93,85,100,5.7,IN,1720570024
302,grants,35.1473,-107.8514,86.52,11,27,11.25,US,1720569787
303,solleftea,63.1667,17.2667,49.86,78,79,2.15,SE,1720570026
304,alice springs,-23.7,133.8833,53.15,66,2,2.3,AU,1720570027
305,ola,59.5833,151.2833,66.38,51,49,14.34,RU,1720570028
306,wuyo,10.3852,11.6968,80.31,68,95,7.47,NG,1720570029
307,santa ana,33.7456,-117.8678,96.31,64,20,11.5,US,1720569920
308,shakawe,-18.3667,21.85,46.27,19,0,4.34,BW,1720570032
309,brak,27.5496,14.2714,86.74,24,6,8.55,LY,1720570033
310,al khums,32.6486,14.2619,77.11,57,2,3.78,LY,1720570034
311,pacific grove,36.6177,-121.9166,76.24,81,20,11.5,US,1720569900
312,mount pearl,47.5166,-52.7813,65.44,91,65,5.99,CA,1720570025
313,oakley,37.9974,-121.7124,91.18,39,0,11.45,US,1720570038
314,majene,-3.5403,118.9707,77.43,82,100,11.79,ID,1720570039
315,sungjibaegam,41.2428,128.7989,65.39,55,0,3.02,KP,1720570040
316,muchkapskiy,51.8513,42.4717,65.28,65,27,4.27,RU,1720570041
317,tonnerre,47.8563,3.9737,63.45,98,97,9.19,FR,1720570042
318,cole harbour,44.6724,-63.4751,70.18,87,100,5.99,CA,1720570043
319,guelendeng,10.9176,15.5501,81.75,64,100,8.79,TD,1720570045
320,kolyvan',55.3053,82.7391,58.62,80,100,5.06,RU,1720570046
321,amga,60.8953,131.9608,55.24,97,100,5.57,RU,1720570047
322,vorkuta,67.5,64.0,61.21,57,3,4.41,RU,1720569865
323,vila franca do campo,37.7167,-25.4333,72.01,95,76,13.4,PT,1720570049
324,princeville,45.7668,-61.2985,73.76,94,100,4.16,CA,1720570050
325,maardu,59.4767,25.025,55.4,94,0,4.61,EE,1720570052
326,butajira,8.1167,38.3667,58.95,85,73,2.39,ET,1720570053
327,undurkhaan,47.3194,110.6556,69.53,63,79,1.57,MN,1720570054
328,kupang,-10.1667,123.5833,82.98,74,20,10.36,ID,1720570055
329,bereeda,11.8704,51.0579,88.61,57,71,12.44,SO,1720570056
330,nova sintra,14.8667,-24.7167,74.46,81,56,22.17,CV,1720570058
331,castillos,-34.1667,-53.8333,45.46,76,92,10.18,UY,1720570059
332,murzuq,25.9155,13.9184,85.82,23,15,10.18,LY,1720570060
333,sarupathar,26.1984,93.8094,76.28,97,100,4.25,IN,1720570061
334,chulym,55.0997,80.9572,60.85,85,91,6.49,RU,1720570062
335,shchigry,51.8755,36.9043,66.02,90,100,4.34,RU,1720570064
336,madalena,41.2162,-8.3345,66.45,95,100,2.57,PT,1720570065
337,tsagan aman,47.5639,46.7218,73.58,39,0,7.2,RU,1720570066
338,georgetown,5.4112,100.3354,76.95,94,20,3.44,MY,1720570060
339,lieksa,63.3167,30.0167,54.5,92,24,4.72,FI,1720570068
340,lethem,3.3803,-59.7968,78.24,76,71,5.66,GY,1720570071
341,south hedland,-20.4089,118.5983,62.53,55,23,5.75,AU,1720570072
342,abadeh,31.1608,52.6506,76.19,20,14,5.82,IR,1720570074
343,pendleton,45.6721,-118.7886,106.39,12,0,11.01,US,1720569791
344,pont-sainte-marie,48.3185,4.0945,64.45,100,75,3.44,FR,1720570076
345,carnarvon,-24.8667,113.6333,71.11,88,2,6.58,AU,1720570078
346,flin flon,54.7682,-101.865,81.43,40,71,4.7,CA,1720570079
347,recani,31.2846,-4.2688,91.74,9,0,5.46,MA,1720570080
348,las palmas,28.4204,-14.0131,68.79,78,0,16.11,ES,1720570081
349,muynoq,43.7683,59.0214,77.31,51,3,6.06,UZ,1720570082
350,porto novo,6.4965,2.6036,75.69,88,93,7.16,BJ,1720570086
351,imperatriz,-5.5264,-47.4917,81.25,38,40,3.78,BR,1720569856
352,ilula,-7.6766,36.0366,55.02,66,36,6.46,TZ,1720570088
353,viale,-31.8678,-60.0072,36.43,74,2,7.43,AR,1720570089
354,tirhanimine,35.2362,-3.9545,72.09,72,16,1.21,MA,1720570090
355,port saint john's,-31.6229,29.5448,64.81,26,74,9.82,ZA,1720570092
356,natal,-5.795,-35.2094,76.3,88,7,7.49,BR,1720570093
357,cacequi,-29.8836,-54.825,39.4,87,91,8.43,BR,1720570094
358,saint-joseph,-21.3667,55.6167,61.18,74,14,7.0,RE,1720570095
359,panacan,9.2463,118.4082,79.52,84,100,1.5,PH,1720570096
360,gizo,-8.103,156.8419,82.15,80,93,7.36,SB,1720570098
361,kapuskasing,49.4169,-82.4331,71.24,73,47,3.62,CA,1720570099
362,kapa'a,22.0752,-159.319,84.52,68,40,14.97,US,1720570100
363,guntur,16.3,80.45,81.68,77,100,7.76,IN,1720570101
364,tofol,5.3248,163.0078,87.58,70,75,8.05,FM,1720570102
365,hithadhoo,-0.6,73.0833,83.14,73,72,6.02,MV,1720570104
366,glendive,47.1053,-104.7125,89.22,29,20,11.5,US,1720570106
367,norilsk,69.3535,88.2027,62.2,68,8,3.85,RU,1720570107
368,mugia,43.1041,-9.2179,65.16,97,88,9.8,ES,1720570108
369,viedma,-40.8135,-62.9967,42.66,70,99,6.04,AR,1720570109
370,kachug,53.9606,105.8817,67.96,86,97,1.9,RU,1720570111
371,tadine,-21.55,167.8833,74.62,71,26,17.56,NC,1720570112
372,polyarnyy,69.1989,33.4478,48.56,81,53,6.08,RU,1720570113
373,fisterra,42.9049,-9.2629,65.01,98,98,10.2,ES,1720570114
374,alice town,25.7167,-79.3,85.28,67,69,0.29,BS,1720570115
375,muddebihal,16.3333,76.1333,73.0,73,100,15.3,IN,1720570116
376,tres arroyos,-38.3739,-60.2798,35.53,73,27,2.15,AR,1720570118
377,zhigalovo,54.8097,105.1578,69.35,91,100,1.92,RU,1720570119
378,jijiga,9.35,42.8,62.58,89,100,13.85,ET,1720570121
379,laojunmiao,39.8333,97.7333,73.24,30,78,4.97,CN,1720570122
380,aykhal,66.0,111.5,64.94,76,100,11.52,RU,1720570124
381,lhasa,29.65,91.1,56.71,83,100,2.91,CN,1720570126
382,coquimbo,-29.9533,-71.3436,51.53,77,100,3.44,CL,1720570127
383,broken hill,-31.95,141.4333,53.82,66,8,6.06,AU,1720570128
384,meadow lakes,61.6247,-149.6011,61.29,71,100,3.0,US,1720570129
385,vanimo,-2.6741,141.3028,84.45,69,99,4.43,PG,1720570130
386,taltal,-25.4,-70.4833,57.97,65,0,3.85,CL,1720570132
387,ketchikan,55.3422,-131.6461,73.87,43,0,9.22,US,1720570113
388,mwinilunga,-11.7358,24.4293,51.39,31,4,3.98,ZM,1720570134
389,hafar al-batin,28.4328,45.9708,97.38,11,0,11.5,SA,1720570135
390,villa bruzual,9.3328,-69.1208,75.45,93,100,1.1,VE,1720570136
391,ulladulla,-35.35,150.4667,58.78,67,40,2.42,AU,1720570138
392,ngaoundere,7.3167,13.5833,64.65,96,100,1.83,CM,1720570139
393,kavaratti,10.5669,72.642,81.25,83,100,14.97,IN,1720570140
394,howard springs,-12.497,131.047,80.87,61,41,11.43,AU,1720570079
395,nephi,39.7102,-111.8363,93.18,9,0,12.91,US,1720570142
396,tallahassee,30.4383,-84.2807,84.4,93,95,8.3,US,1720570143
397,dudinka,69.4058,86.1778,62.74,69,0,8.34,RU,1720570145
398,garoowe,8.4054,48.4845,76.23,75,77,26.08,SO,1720570146
399,songea,-10.6833,35.65,52.72,47,9,0.98,TZ,1720570147
400,dolores,-36.3132,-57.6792,35.08,53,7,3.29,AR,1720570148
401,rabaul,-4.1967,152.1721,84.04,72,80,11.97,PG,1720570149
402,benalla,-36.55,145.9833,52.25,87,82,7.74,AU,1720570150
403,tchollire,8.4022,14.1698,73.11,88,92,4.07,CM,1720570152
404,aripuana,-9.1667,-60.6333,78.87,47,0,1.07,BR,1720570153
405,manokwari,-0.8667,134.0833,82.0,73,100,4.12,ID,1720570133
406,buga,3.9009,-76.2978,73.11,87,69,1.1,CO,1720570155
407,lata,40.1629,-8.3327,68.92,79,41,2.68,PT,1720570156
408,antsiranana,-12.2787,49.2917,70.45,70,10,13.58,MG,1720570157
409,nuuk,64.1835,-51.7216,41.61,100,100,1.14,GL,1720569865
410,usogorsk,63.4106,48.6872,63.1,99,91,3.22,RU,1720570160
411,san pedro pochutla,15.7333,-96.4667,85.71,83,99,3.83,MX,1720570161
412,agustin codazzi,10.0341,-73.2361,82.18,67,91,4.21,CO,1720570162
413,flying fish cove,-10.4217,105.6791,78.48,83,75,13.8,CX,1720570017
414,prince george,53.9166,-122.753,92.62,31,38,1.99,CA,1720570164
415,whakatane,-37.9585,176.9854,57.88,78,4,1.99,NZ,1720570166
416,san juan de abajo,20.8167,-105.1833,84.67,79,100,6.91,MX,1720570167
417,diamantino,-14.4086,-56.4461,67.96,57,3,4.85,BR,1720570168
418,baniyas,35.1819,35.9487,75.49,70,0,3.51,SY,1720570169
419,dzitbalche,20.3167,-90.05,89.38,50,71,5.35,MX,1720570170
420,mersa matruh,31.3525,27.2453,77.27,85,0,9.93,EG,1720570172
421,salinopolis,-0.6136,-47.3561,79.79,82,41,12.88,BR,1720570173
422,luwingu,-10.2621,29.9271,49.23,32,89,3.38,ZM,1720570174
423,puerto maldonado,-12.6,-69.1833,62.64,79,2,2.68,PE,1720570175
424,davos,46.8043,9.8372,57.25,85,31,5.97,CH,1720570176
425,kolonia,50.9333,6.95,68.29,88,0,1.14,DE,1720570178
426,casino,-28.8667,153.05,70.57,75,38,3.42,AU,1720570179
427,whitecourt,54.1502,-115.6855,87.42,46,39,10.25,CA,1720570180
428,prado,-17.3411,-39.2208,75.38,82,8,10.65,BR,1720570104
429,soure,-0.7167,-48.5233,79.38,81,11,10.02,BR,1720570182
430,hami,42.8,93.45,81.88,33,86,7.63,CN,1720570183
431,queenstown,-31.8976,26.8753,50.54,29,64,33.46,ZA,1720570185
432,cedar city,37.6775,-113.0619,97.77,10,0,9.22,US,1720570186
433,hamois,50.3348,5.1512,63.14,92,86,6.31,BE,1720570187
434,klaksvik,62.2266,-6.589,45.52,84,59,4.29,FO,1720570188
435,cepin,45.5236,18.5633,76.21,59,2,2.48,HR,1720570189
436,tanjungtiram,4.0613,98.3699,74.12,97,100,2.91,ID,1720570190
437,rye,40.9807,-73.6837,84.76,79,0,9.22,US,1720570192
438,patterson,37.4716,-121.1297,98.55,8,0,3.09,US,1720569973
439,novodvinsk,64.4165,40.8122,60.55,93,84,4.72,RU,1720570039
440,namibe,-15.1961,12.1522,63.54,88,63,8.08,AO,1720570195
441,weno,7.4515,151.8468,87.75,89,100,4.61,FM,1720570137
442,prineville,44.2999,-120.8345,105.91,11,0,14.97,US,1720570077
443,rikaze,29.25,88.8833,58.59,65,96,2.86,CN,1720570199
444,mawlaik,23.6333,94.4167,74.89,100,100,0.47,MM,1720570201
445,sasovo,54.3537,41.9199,66.06,65,11,2.37,RU,1720570202
446,axim,4.8699,-2.2405,76.01,85,96,9.31,GH,1720570203
447,vila velha,-20.3297,-40.2925,74.95,88,17,7.0,BR,1720570205
448,bom jesus,-9.0744,-44.3586,77.86,34,22,5.35,BR,1720570207
449,katsuren-haebaru,26.3369,127.8719,89.98,76,40,14.97,JP,1720570208
450,zuya,45.0531,34.3154,75.56,58,100,6.49,UA,1720570209
451,verkhnevilyuysk,63.4453,120.3167,74.08,52,99,4.9,RU,1720570210
452,harper,4.375,-7.7169,75.94,84,100,11.88,LR,1720570211
453,tanjung pandan,-2.75,107.65,78.33,84,89,7.47,ID,1720570213
454,gamba,-2.65,10.0,68.59,95,91,4.92,GA,1720570214
455,smithers,54.7804,-127.1743,87.58,19,83,5.39,CA,1720570215
456,puerto real,36.5282,-6.1901,70.25,88,0,3.44,ES,1720570216
457,kargasok,59.0556,80.8572,59.67,73,79,6.13,RU,1720570217
458,mili,6.0815,171.735,82.76,80,68,18.54,MH,1720570035
459,fasa,28.9383,53.6482,79.84,36,40,4.61,IR,1720570220
460,ouahigouya,13.5828,-2.4216,86.41,53,11,9.31,BF,1720570221
461,kirakira,-10.4544,161.9205,79.2,91,100,11.52,SB,1720570222
462,abaza,52.655,90.0928,64.89,94,98,2.35,RU,1720570223
463,luba,3.4568,8.5547,77.11,90,99,9.26,GQ,1720570224
464,indramayu,-6.3264,108.32,78.89,80,99,8.57,ID,1720570226
465,majuro,7.0897,171.3803,84.16,79,100,10.36,MH,1720570227
466,santa ana de yacuma,-13.75,-65.4333,62.17,50,8,6.35,BO,1720570228
467,borba,-4.3878,-59.5939,80.92,61,54,2.37,BR,1720570229
468,chos malal,-37.3781,-70.2709,31.08,91,100,5.1,AR,1720570230
469,den burg,53.0542,4.7972,64.38,94,100,5.75,NL,1720570231
470,taunggyi,20.7833,97.0333,66.9,96,100,3.83,MM,1720570233
471,nangong,37.3581,115.3744,81.99,35,15,4.27,CN,1720570234
472,talsi,57.2456,22.5814,53.01,87,71,4.29,LV,1720570235
473,ullal,12.8,74.85,74.35,94,75,6.91,IN,1720570236
474,narrabri,-30.3167,149.7833,55.78,70,5,3.2,AU,1720570238
475,juneau,58.3019,-134.4197,60.8,89,100,6.91,US,1720570020
476,sicuani,-14.2694,-71.2261,50.58,34,0,3.0,PE,1720570240
477,bentiu,9.2333,29.8333,76.33,78,68,3.94,SS,1720570241
478,sao felix do xingu,-6.6447,-51.995,82.33,44,77,2.28,BR,1720570242
479,gaigeturi,33.4644,126.3183,78.85,94,100,14.97,KR,1720570243
480,akrehamn,59.2667,5.1833,57.99,82,100,4.61,NO,1720570245
481,creel,27.75,-107.6333,74.03,33,77,15.41,MX,1720570246
482,arraial do cabo,-22.9661,-42.0278,70.74,90,100,4.59,BR,1720570247
483,trenggalek,-8.05,111.7167,74.95,96,99,3.06,ID,1720570248
484,monze,-16.2833,27.4833,56.75,21,0,5.46,ZM,1720570249
485,ajjampur,13.7281,76.0094,68.63,86,93,4.09,IN,1720570250
486,inderbor,48.55,51.7833,74.12,38,0,9.06,KZ,1720570252
487,male,4.1748,73.5089,82.9,76,44,7.49,MV,1720570253
488,dhidhdhoo,6.8833,73.1,83.05,78,82,12.08,MV,1720570254
489,nagasaki,32.7447,129.8736,83.84,79,52,14.61,JP,1720570152
490,chapada dos guimaraes,-15.4606,-55.7497,56.86,60,16,4.83,BR,1720570256
491,sydney,-33.8679,151.2073,61.34,72,40,9.22,AU,1720570024
492,malvan,16.0667,73.4667,78.87,84,100,6.17,IN,1720570259
493,nadym,65.5333,72.5167,56.46,63,52,8.9,RU,1720569981
494,golhisar,37.1459,29.5088,69.26,63,16,4.18,TR,1720570261
495,kalmunai,7.4167,81.8167,79.93,80,58,6.42,LK,1720570262
496,tlanchinol,20.9833,-98.65,68.36,94,100,1.23,MX,1720570263
497,bikenibeu village,1.3673,173.1241,87.76,74,20,6.91,KI,1720570264
498,wotho,10.1657,166.0102,83.25,78,30,17.87,MH,1720570266
499,namsos,64.4662,11.4957,49.91,93,27,3.44,NO,1720570267
500,galesong,-5.3166,119.3661,75.22,76,99,4.81,ID,1720570268
501,belel,7.05,14.4333,61.18,96,100,0.54,CM,1720570269
502,kurumkan,54.3,110.3,76.8,60,79,2.89,RU,1720570270
503,tshabong,-26.05,22.45,44.51,20,0,9.46,BW,1720570272
504,newman,37.3138,-121.0208,102.43,6,0,11.32,US,1720570231
505,kiraoli,27.15,77.7833,84.67,76,59,9.22,IN,1720570274
506,codrington,-38.2667,141.9667,47.62,82,2,9.08,AU,1720570112
507,tual,-5.6667,132.75,78.44,84,98,22.32,ID,1720570276
508,viqueque,-8.8673,126.3658,75.9,86,100,6.76,TL,1720570277
509,nar'yan-mar,67.6713,53.087,61.68,97,93,7.16,RU,1720570279
510,laguna,38.421,-121.4238,103.08,33,0,9.22,US,1720570117
511,tanggu,39.0211,117.6469,78.76,45,100,3.09,CN,1720570281
512,amasra,41.7463,32.3863,73.31,74,14,3.76,TR,1720570282
513,bafoulabe,13.8065,-10.8321,82.74,68,100,9.01,ML,1720570283
514,daru,-9.0763,143.2092,78.13,82,80,16.02,PG,1720570284
515,urechesti,45.6,27.0667,73.04,49,15,11.86,RO,1720570286
516,gadzhiyevo,69.2551,33.3362,49.35,80,69,6.49,RU,1720569999
517,gambiran satu,-8.3939,114.1464,73.96,98,83,2.35,ID,1720570288
518,bollnas,61.3482,16.3946,57.38,66,91,1.43,SE,1720570289
519,revda,56.801,59.9303,57.7,90,5,1.39,RU,1720570290
520,itaituba,-4.2761,-55.9836,77.56,70,62,1.16,BR,1720570292
521,port macquarie,-31.4333,152.9167,62.08,68,20,1.99,AU,1720570293
522,hotan,37.0997,79.9269,79.68,27,71,3.36,CN,1720570294
523,shawinigan,46.5668,-72.7491,77.41,95,94,5.26,CA,1720570295
524,dzhalagash,45.0833,64.6667,78.06,43,50,8.25,KZ,1720570297
525,jinjing,24.575,118.5972,85.21,80,47,6.8,CN,1720570298
526,trondheim,63.4305,10.3951,51.89,88,27,4.07,NO,1720570299
527,illizi,26.4833,8.4667,89.76,15,35,8.61,DZ,1720570300
528,pollenca,39.8768,3.0163,75.96,74,20,6.13,ES,1720570301
529,yung shue wan,22.2333,114.1167,87.22,87,2,5.23,HK,1720570142
530,hanko,59.8333,22.95,58.98,95,29,10.0,FI,1720570304
531,dagda,56.0951,27.5372,57.34,81,69,1.01,LV,1720570305
532,bataszek,46.1937,18.7231,76.41,57,41,2.19,HU,1720570306
533,port douglas,-16.4833,145.4667,72.91,71,40,4.99,AU,1720570307
534,port-gentil,-0.7193,8.7815,73.6,84,29,12.44,GA,1720570308
535,terrace heights,46.6062,-120.4398,106.86,13,0,5.75,US,1720570310
536,yuci,37.6803,112.7319,74.95,60,40,4.47,CN,1720570312
537,piterka,50.6803,47.4454,68.05,62,0,8.41,RU,1720570313
538,sidi akkacha,36.4647,1.3026,68.07,94,7,1.99,DZ,1720570314
539,luganville,-15.5333,167.1667,78.94,72,89,15.59,VU,1720570315
540,nova xavantina,-14.6667,-52.35,75.47,40,21,3.69,BR,1720570317
541,hvardiiske,45.1209,34.0185,78.58,49,100,11.25,UA,1720570318
542,petrov val,50.1434,45.2096,68.59,55,5,5.28,RU,1720570319
543,sinabang,2.4803,96.3801,77.07,91,100,4.18,ID,1720570320
544,hasaki,35.7333,140.8333,88.29,72,49,5.93,JP,1720570321
545,isiolo,0.3546,37.5822,68.7,70,99,8.75,KE,1720570322
546,rundu,-17.9333,19.7667,47.08,23,0,4.9,NA,1720570324
547,casper,42.8666,-106.3131,87.73,18,0,11.5,US,1720570191
548,tiznit,29.5833,-9.5,74.08,51,0,2.17,MA,1720570326
549,nueva gerona,21.8833,-82.8,83.82,72,100,6.93,CU,1720570327
550,labuan,5.2767,115.2417,78.28,85,100,12.21,MY,1720570328
551,huercal de almeria,36.8851,-2.4376,73.9,81,0,3.44,ES,1720570329
552,sao gabriel da cachoeira,-0.1303,-67.0892,78.26,79,100,0.34,BR,1720570331
553,ikaalinen,61.7695,23.0658,48.38,96,2,3.96,FI,1720570332
554,kiruna,67.8557,20.2251,36.52,93,99,4.61,SE,1720570333
555,oppdal,62.5943,9.6912,46.53,96,72,3.8,NO,1720570334
556,krasnoshchekovo,51.6708,82.7289,58.91,95,52,3.53,RU,1720570335
557,manggar,-2.8833,108.2667,82.53,73,99,12.28,ID,1720570337
558,al muwayh,22.4333,41.7583,82.78,21,53,10.45,SA,1720570338
559,la passe,45.5549,-0.8967,66.97,94,100,9.17,FR,1720570339
560,bac lieu,9.285,105.7244,83.01,78,100,6.31,VN,1720570340
561,grand rapids,42.9634,-85.6681,76.86,81,100,8.05,US,1720570341
562,as sulayyil,20.4607,45.5779,97.05,14,99,9.44,SA,1720570342
